,City,Cloudiness,Country,Date,Humidity,Lat,Lng,Max Temp,Wind Speed
0,Albany,40,US,2019-06-26 17:02:29,48,42.65,-73.75,84.99,3.36
1,Busselton,17,AU,2019-06-26 17:03:30,51,-33.64,115.35,57.0,32.44
2,Vagur,78,FO,2019-06-26 17:03:30,90,61.47,-6.81,50.31,22.57
3,Krasnoarmeysk,100,RU,2019-06-26 17:03:31,93,56.12,38.15,61.0,4.47
4,Beringovskiy,100,RU,2019-06-26 17:03:31,96,63.05,179.32,42.03,7.85
5,Gorontalo,16,ID,2019-06-26 17:03:31,91,0.54,123.06,75.51,5.99
6,Punta Alta,0,AR,2019-06-26 17:03:31,46,-27.46,-55.82,55.4,9.17
7,Saint-Philippe,90,CA,2019-06-26 17:03:32,61,45.36,-73.48,81.0,6.93
8,Ushuaia,75,AR,2019-06-26 17:03:32,90,-54.81,-68.31,32.0,9.17
9,Mataura,74,NZ,2019-06-26 17:03:32,83,-46.19,168.86,46.99,5.99
10,Ancud,75,CL,2019-06-26 17:03:32,87,-41.87,-73.83,46.4,11.41
11,Hermanus,0,ZA,2019-06-26 16:59:17,91,-34.42,19.24,57.0,1.99
12,Port Elizabeth,1,US,2019-06-26 17:03:33,38,39.31,-74.98,91.0,10.29
13,Potiskum,99,NG,2019-06-26 17:03:33,45,11.71,11.08,89.01,11.7
14,Dasoguz,99,TM,2019-06-26 17:03:34,31,41.84,59.97,93.2,4.7
15,Atuona,0,PF,2019-06-26 17:03:34,69,-9.8,-139.03,81.27,17.81
16,Anadyr,20,RU,2019-06-26 17:03:34,81,64.73,177.51,46.4,8.95
17,Chokurdakh,17,RU,2019-06-26 17:03:35,41,70.62,147.9,57.69,12.8
18,Jiangyou,95,CN,2019-06-26 17:03:35,95,31.78,104.73,62.19,2.39
19,Karpathos,20,GR,2019-06-26 17:03:03,74,35.51,27.21,80.6,23.04
20,Yucca Valley,1,US,2019-06-26 17:03:35,20,34.12,-116.41,89.01,8.05
21,College,1,US,2019-06-26 17:03:36,51,64.86,-147.8,64.99,3.36
22,Gat,0,SN,2019-06-26 17:03:36,55,14.69,-16.54,86.0,10.29
23,Cherskiy,11,RU,2019-06-26 17:03:37,40,68.75,161.3,56.43,8.37
24,Yellowknife,40,CA,2019-06-26 17:03:37,42,62.45,-114.38,66.2,8.05
25,Raudeberg,40,NO,2019-06-26 17:03:37,71,61.99,5.14,59.0,16.11
26,Nagua,20,DO,2019-06-26 17:03:38,79,19.37,-69.85,87.8,9.17
27,Khatanga,70,RU,2019-06-26 17:03:38,59,71.98,102.47,49.95,9.37
28,Husavik,0,CA,2019-06-26 17:03:38,38,50.56,-96.99,75.0,5.99
29,Batsfjord,75,NO,2019-06-26 17:03:39,71,70.63,29.72,57.2,16.11
30,Wanaka,0,NZ,2019-06-26 17:03:39,88,-44.7,169.14,28.0,1.99
31,Timbuktu,0,ML,2019-06-26 17:03:39,12,16.77,-3.01,109.35,5.01
32,New Norfolk,0,AU,2019-06-26 17:03:40,81,-42.78,147.06,44.01,5.82
33,Sao Joao da Barra,0,BR,2019-06-26 17:03:40,45,-21.64,-41.05,87.8,4.7
34,Bluff,11,AU,2019-06-26 17:03:41,86,-23.58,149.07,58.05,17.58
35,Ponta do Sol,25,BR,2019-06-26 17:03:41,43,-20.63,-46.0,77.85,6.64
36,Qaanaaq,82,GL,2019-06-26 17:03:41,76,77.48,-69.36,35.37,2.26
37,Mombetsu,20,JP,2019-06-26 17:03:41,78,44.35,143.35,59.0,5.01
38,Kapaa,90,US,2019-06-26 17:03:42,88,22.08,-159.32,77.0,14.99
39,Barrow,74,AR,2019-06-26 17:03:42,27,-38.31,-60.23,56.07,25.26
40,Santa Luzia,20,BR,2019-06-26 17:03:43,36,-19.77,-43.85,82.4,9.17
41,Chapais,75,CA,2019-06-26 17:03:44,64,49.78,-74.86,73.4,16.11
42,Moctezuma,37,MX,2019-06-26 17:03:44,20,29.81,-109.68,87.21,9.08
43,Khasan,100,RU,2019-06-26 17:03:45,97,42.43,130.64,62.91,3.6
44,Pio XII,36,BR,2019-06-26 17:03:45,65,-3.89,-45.17,85.59,6.44
45,Mahebourg,75,MU,2019-06-26 17:03:46,88,-20.41,57.7,75.2,17.22
46,Sola,100,TZ,2019-06-26 17:03:46,68,-3.17,33.8,72.81,1.88
47,Ribeira Grande,40,PT,2019-06-26 17:03:46,60,38.52,-28.7,68.0,10.29
48,Kodiak,40,US,2019-06-26 17:03:47,27,39.95,-94.76,80.01,10.29
49,San Patricio,18,PY,2019-06-26 17:03:47,48,-26.98,-56.83,56.79,6.22
50,Hithadhoo,45,MV,2019-06-26 17:03:10,72,-0.6,73.08,84.69,9.26
51,Nikolskoye,75,RU,2019-06-26 17:03:47,59,59.7,30.79,66.2,6.71
52,Monrovia,75,LR,2019-06-26 17:03:48,94,6.33,-10.8,77.0,9.08
53,Antalaha,9,MG,2019-06-26 17:03:48,96,-14.9,50.28,64.89,4.47
54,Semirom,1,IR,2019-06-26 17:03:48,20,31.41,51.57,70.29,2.62
55,Flinders,90,AU,2019-06-26 17:03:49,100,-34.58,150.85,55.99,5.82
56,Jamestown,0,AU,2019-06-26 16:59:17,65,-33.21,138.6,52.29,13.67
57,Vanavara,98,RU,2019-06-26 17:03:49,69,60.35,102.28,61.47,3.13
58,Rio Hato,1,PA,2019-06-26 17:03:49,63,8.38,-80.16,91.99,12.95
59,Chuy,2,UY,2019-06-26 17:03:50,54,-33.69,-53.46,51.75,9.57
60,Rikitea,73,PF,2019-06-26 17:03:50,79,-23.12,-134.97,74.25,10.63
61,Bundaberg,30,AU,2019-06-26 17:03:50,93,-24.87,152.35,62.01,9.17
62,Kalasin,96,TH,2019-06-26 17:03:50,74,16.43,103.51,81.99,12.06
63,Makinsk,100,KZ,2019-06-26 17:03:51,91,52.63,70.42,51.21,8.41
64,Punta Arenas,40,CL,2019-06-26 17:03:51,57,-53.16,-70.91,32.0,9.17
65,Rybachiy,0,RU,2019-06-26 17:03:51,26,48.71,44.74,78.8,8.95
66,Sept-Iles,90,CA,2019-06-26 17:03:52,82,50.2,-66.38,55.4,14.99
67,Port Alfred,67,ZA,2019-06-26 17:03:52,86,-33.59,26.89,58.77,13.06
68,Eldorado,74,BR,2019-06-26 17:03:52,83,-24.52,-48.11,68.31,2.33
69,Hilo,90,US,2019-06-26 17:03:52,88,19.71,-155.08,73.0,6.93
70,Leningradskiy,47,RU,2019-06-26 17:03:53,88,69.38,178.42,35.73,11.36
71,Vaini,92,IN,2019-06-26 17:03:53,89,15.34,74.49,78.75,3.49
72,Udachnyy,75,RU,2019-06-26 17:03:53,52,66.42,112.4,66.2,6.71
73,Butaritari,90,KI,2019-06-26 16:59:17,73,3.07,172.79,83.61,15.79
74,Caravelas,7,BR,2019-06-26 17:03:54,71,-17.73,-39.27,78.93,10.45
75,Avarua,25,CK,2019-06-26 17:00:32,94,-21.21,-159.78,69.8,4.7
76,Katsuura,75,JP,2019-06-26 17:03:54,94,33.93,134.5,73.99,12.75
77,Alma,1,US,2019-06-26 17:03:49,24,39.28,-106.06,73.0,4.7
78,Arraial do Cabo,0,BR,2019-06-26 17:03:55,38,-22.97,-42.02,91.4,11.41
79,Norman Wells,75,CA,2019-06-26 17:03:55,66,65.28,-126.83,48.2,13.87
80,Mar del Plata,100,AR,2019-06-26 17:03:56,46,-46.43,-67.52,48.87,20.98
81,Pisco,40,PE,2019-06-26 17:03:56,30,-13.71,-76.2,71.6,8.05
82,Komsomolskiy,98,RU,2019-06-26 17:03:56,86,67.55,63.78,42.75,6.46
83,Elk City,1,US,2019-06-26 17:03:27,51,35.41,-99.4,89.01,13.87
84,Torbay,20,CA,2019-06-26 17:03:57,62,47.66,-52.73,62.01,10.29
85,Charters Towers,55,AU,2019-06-26 17:03:57,86,-20.07,146.27,58.05,7.61
86,Winnemucca,1,US,2019-06-26 17:03:57,26,40.97,-117.74,69.8,6.93
87,Shetpe,40,KZ,2019-06-26 17:03:57,47,44.14,52.16,81.63,14.99
88,Kununurra,99,AU,2019-06-26 17:00:58,62,-15.77,128.74,51.8,1.12
89,Berdigestyakh,97,RU,2019-06-26 17:03:58,82,62.1,126.7,54.09,4.41
90,Midland,1,US,2019-06-26 17:01:58,61,32.0,-102.08,84.2,13.87
91,Saldanha,40,PT,2019-06-26 17:03:59,40,41.42,-6.55,78.39,9.19
92,Talnakh,75,RU,2019-06-26 17:03:59,57,69.49,88.39,48.2,6.71
93,Sompeta,38,IN,2019-06-26 17:03:59,79,18.93,84.6,81.63,6.78
94,Pacific Grove,75,US,2019-06-26 16:59:55,63,36.62,-121.92,69.01,4.7
95,Lebu,20,ET,2019-06-26 16:59:18,43,8.96,38.73,71.6,9.17
96,Mugur-Aksy,91,RU,2019-06-26 17:04:00,87,50.38,90.44,33.39,3.98
97,Novikovo,36,RU,2019-06-26 17:04:00,72,51.15,37.89,63.45,6.98
98,Narsaq,75,GL,2019-06-26 17:04:01,87,60.91,-46.05,51.8,5.82
99,Prince George,1,CA,2019-06-26 17:03:54,72,53.92,-122.75,63.0,4.7
100,Tabuk,98,PH,2019-06-26 17:04:01,96,17.41,121.44,65.43,1.43
101,Tiksi,0,RU,2019-06-26 17:03:02,59,71.64,128.87,58.77,8.7
102,Albury,40,AU,2019-06-26 17:04:02,84,-36.08,146.92,39.99,3.36
103,Mount Isa,44,AU,2019-06-26 17:04:02,48,-20.73,139.49,44.6,1.12
104,Nuqui,75,CO,2019-06-26 17:04:03,78,5.71,-77.27,82.4,9.64
105,Magburaka,61,SL,2019-06-26 17:04:03,83,8.72,-11.95,82.35,6.02
106,Broome,75,GB,2019-06-26 17:04:03,87,52.47,1.45,62.01,11.41
107,San Joaquin,93,PH,2019-06-26 17:00:30,89,10.59,122.14,77.31,4.74
108,Broken Hill,0,AU,2019-06-26 17:04:04,75,-31.97,141.45,46.4,11.41
109,Tasiilaq,90,GL,2019-06-26 17:03:04,70,65.61,-37.64,46.4,6.93
110,Samarai,88,PG,2019-06-26 17:04:04,95,-10.62,150.67,74.25,5.01
111,Grand Gaube,75,MU,2019-06-26 17:04:05,88,-20.01,57.66,75.2,17.22
112,East London,0,ZA,2019-06-26 17:04:05,93,-33.02,27.91,59.0,6.93
113,Yeppoon,90,AU,2019-06-26 17:04:05,82,-23.13,150.74,62.6,8.05
114,Mount Gambier,62,AU,2019-06-26 17:04:06,76,-37.83,140.78,51.8,12.75
115,Maniitsoq,98,GL,2019-06-26 17:04:06,72,65.42,-52.9,49.95,5.06
116,Aitape,91,PG,2019-06-26 17:04:07,78,-3.15,142.36,77.49,4.12
117,Dingle,95,PH,2019-06-26 17:04:07,88,11.0,122.67,75.33,5.39
118,Puerto Ayora,20,EC,2019-06-26 17:04:07,61,-0.74,-90.35,80.6,3.36
119,Hamilton,75,CA,2019-06-26 17:01:38,61,43.26,-79.87,84.99,13.87
120,Kaman,0,TR,2019-06-26 17:04:08,49,39.36,33.73,75.69,13.58
121,Geraldton,75,CA,2019-06-26 17:04:09,64,49.72,-86.95,69.8,10.29
122,Palu,61,ID,2019-06-26 17:04:09,88,-0.9,119.87,76.05,3.33
123,Deputatskiy,0,RU,2019-06-26 17:04:10,51,69.3,139.9,61.47,2.53
124,Vila Velha,20,BR,2019-06-26 17:04:10,62,-3.71,-38.6,86.0,23.04
125,Faya,75,SA,2019-06-26 17:04:11,34,18.39,42.45,82.4,4.7
126,Magadan,7,RU,2019-06-26 17:04:11,68,59.56,150.8,50.49,9.8
127,Shieli,70,KZ,2019-06-26 17:04:12,30,44.18,66.74,89.01,15.95
128,Teahupoo,40,PF,2019-06-26 17:04:12,78,-17.83,-149.27,77.0,8.05
129,Cabo San Lucas,5,MX,2019-06-26 17:02:01,42,22.89,-109.91,93.99,9.17
130,Cape Town,0,ZA,2019-06-26 17:02:41,82,-33.93,18.42,57.0,6.93
131,Grindavik,90,IS,2019-06-26 17:04:13,100,63.84,-22.43,51.8,14.99
132,Hobart,0,AU,2019-06-26 17:00:04,81,-42.88,147.33,44.01,5.82
133,Padang,2,ID,2019-06-26 17:04:13,74,-0.92,100.36,82.53,4.09
134,Kavieng,91,PG,2019-06-26 17:04:14,75,-2.57,150.8,84.33,9.84
135,Parkes,0,AU,2019-06-26 17:01:08,79,-33.14,148.18,45.0,4.47
136,Siderno,75,IT,2019-06-26 17:04:14,51,38.28,16.3,86.0,8.05
137,Hofn,0,IS,2019-06-26 17:03:04,67,64.25,-15.21,59.0,5.82
138,Pandan,100,PH,2019-06-26 17:04:15,76,11.72,122.09,83.25,16.49
139,Paamiut,100,GL,2019-06-26 17:04:15,99,61.99,-49.67,40.05,12.35
140,Tuktoyaktuk,90,CA,2019-06-26 17:04:16,86,69.44,-133.03,37.4,20.8
141,Haimen,65,CN,2019-06-26 17:04:16,93,31.87,121.18,73.0,3.49
142,Upernavik,7,GL,2019-06-26 17:04:16,88,72.79,-56.15,33.75,11.95
143,Poum,40,MK,2019-06-26 17:04:16,54,41.28,20.71,78.8,8.05
144,Orda,98,RU,2019-06-26 17:04:17,86,57.2,56.91,52.65,3.62
145,Carnarvon,0,ZA,2019-06-26 17:04:17,29,-30.97,22.13,46.35,7.85
146,Elko,1,US,2019-06-26 17:04:17,30,40.83,-115.76,79.0,4.7
147,Kyshtovka,81,RU,2019-06-26 17:04:18,95,56.56,76.62,58.59,10.11
148,Cabedelo,3,BR,2019-06-26 17:04:18,76,-6.97,-34.84,80.37,12.15
149,Sun Valley,1,US,2019-06-26 17:04:18,19,39.6,-119.78,73.0,19.46
150,Zhucheng,0,CN,2019-06-26 17:04:19,83,30.85,114.8,80.6,4.47
151,Soe,99,EE,2019-06-26 17:04:19,82,57.91,26.05,61.0,9.17
152,Severo-Yeniseyskiy,49,RU,2019-06-26 17:04:19,69,60.37,93.04,60.93,2.01
153,Lazaro Cardenas,5,MX,2019-06-26 17:04:20,37,28.39,-105.62,90.0,8.05
154,Port Lincoln,0,AU,2019-06-26 17:04:20,61,-34.72,135.86,59.49,26.02
155,Ameca,44,MX,2019-06-26 17:04:21,45,20.55,-104.05,83.61,2.82
156,Buchanan,75,LR,2019-06-26 17:04:21,94,5.88,-10.05,77.0,13.73
157,Faanui,33,PF,2019-06-26 17:04:21,76,-16.48,-151.75,80.19,8.05
158,Tucupita,35,VE,2019-06-26 17:00:13,48,9.06,-62.05,90.81,9.19
159,Tuatapere,47,NZ,2019-06-26 17:04:22,83,-46.13,167.69,46.99,5.99
160,Provideniya,100,RU,2019-06-26 17:04:22,96,64.42,-173.23,44.55,9.62
161,Jutai,86,BR,2019-06-26 17:04:22,60,-1.71,-47.89,87.57,5.59
162,Mocuba,28,MZ,2019-06-26 17:04:23,97,-16.84,36.99,62.19,3.4
163,Ketchikan,1,US,2019-06-26 17:04:23,72,55.34,-131.65,64.4,6.93
164,Zhigansk,8,RU,2019-06-26 17:04:23,78,66.77,123.37,60.03,7.38
165,Codrington,90,AU,2019-06-26 17:04:23,93,-28.95,153.24,57.2,5.79
166,Krasnoshchekovo,0,RU,2019-06-26 17:04:24,89,51.67,82.73,53.73,4.18
167,Jalingo,100,NG,2019-06-26 17:04:24,67,10.3,10.93,82.53,10.56
168,Erenhot,100,CN,2019-06-26 17:04:24,29,43.65,111.97,78.39,24.76
169,Nemuro,45,JP,2019-06-26 17:04:25,88,43.32,145.57,52.83,10.18
170,Qasigiannguit,75,GL,2019-06-26 17:04:25,81,68.82,-51.19,44.6,9.17
171,Susanville,1,US,2019-06-26 17:01:32,29,40.42,-120.65,68.0,10.29
172,Wanning,30,AT,2019-06-26 17:04:25,30,48.64,13.53,93.2,6.93
173,Polunochnoye,57,RU,2019-06-26 17:04:26,64,60.87,60.43,48.15,2.57
174,Hobyo,84,SO,2019-06-26 17:04:26,71,5.35,48.53,78.21,27.56
175,Keti Bandar,0,PK,2019-06-26 17:04:26,84,24.14,67.45,84.69,20.22
176,Sarangani,100,PH,2019-06-26 17:04:27,75,5.4,125.46,83.25,7.56
177,Hambantota,99,LK,2019-06-26 17:04:27,80,6.12,81.12,82.53,19.6
178,Rocha,9,UY,2019-06-26 17:01:26,58,-34.48,-54.34,51.57,9.08
179,Yeniseysk,57,RU,2019-06-26 17:04:27,64,58.45,92.17,64.17,5.12
180,Ostrovnoy,100,RU,2019-06-26 17:04:28,62,68.05,39.51,56.07,8.5
181,Mosetse,99,BW,2019-06-26 17:04:28,59,-20.64,26.64,64.53,12.17
182,Ovre Ardal,20,NO,2019-06-26 17:04:28,58,61.32,7.8,59.0,23.04
183,Naze,100,NG,2019-06-26 17:04:28,97,5.43,7.07,71.55,5.82
184,Lorengau,52,PG,2019-06-26 17:04:29,84,-2.02,147.27,80.01,5.77
185,Souillac,0,FR,2019-06-26 17:04:29,34,45.6,-0.6,99.0,11.41
186,Bredasdorp,0,ZA,2019-06-26 17:04:30,87,-34.53,20.04,57.2,4.7
187,Bara,100,NG,2019-06-26 17:04:30,67,10.41,10.6,82.53,10.56
188,Vila Franca do Campo,40,PT,2019-06-26 17:04:30,64,37.72,-25.43,68.0,16.11
189,Portland,40,US,2019-06-26 16:54:06,73,43.66,-70.25,79.0,6.93
190,Bethel,90,US,2019-06-26 17:04:31,87,60.79,-161.76,62.6,11.41
191,Saint Anthony,40,US,2019-06-26 17:04:32,43,43.97,-111.68,73.0,6.93
192,Fraserburgh,0,GB,2019-06-26 17:04:32,55,57.69,-2.02,68.0,9.17
193,Namibe,75,AO,2019-06-26 17:04:32,72,-15.19,12.15,68.0,9.17
194,Castro,75,CL,2019-06-26 17:04:33,87,-42.48,-73.76,46.4,11.41
195,Plainview,1,US,2019-06-26 17:00:04,51,34.18,-101.71,87.01,12.75
196,Clyde River,20,CA,2019-06-26 17:03:07,86,70.47,-68.59,39.2,16.11
197,Sioux Lookout,75,CA,2019-06-26 17:04:34,53,50.1,-91.92,71.6,11.41
198,Zdvinsk,42,RU,2019-06-26 17:04:34,76,54.7,78.67,59.67,15.55
199,Port Blair,100,IN,2019-06-26 17:04:34,81,11.67,92.75,83.97,20.87
200,Saint-Pierre,0,FR,2019-06-26 17:04:35,34,48.95,4.24,100.4,12.75
201,Necochea,30,AR,2019-06-26 17:03:38,34,-38.55,-58.74,57.0,20.0
202,Petropavlovsk-Kamchatskiy,75,RU,2019-06-26 17:04:36,100,53.05,158.65,44.6,4.47
203,Aswan,0,EG,2019-06-26 17:04:36,11,24.09,32.9,113.0,6.93
204,Banda Aceh,29,ID,2019-06-26 17:04:37,74,5.56,95.32,83.79,13.56
205,Koraput,8,IN,2019-06-26 17:02:10,74,18.81,82.72,80.37,5.12
206,Omboue,83,GA,2019-06-26 17:04:37,75,-1.57,9.26,76.05,10.94
207,Jinji,85,CN,2019-06-26 17:04:38,92,22.16,112.49,78.93,1.12
208,Guerrero Negro,100,MX,2019-06-26 17:04:39,82,27.97,-114.04,62.73,7.67
209,Coihaique,75,CL,2019-06-26 17:04:39,100,-45.58,-72.07,44.6,4.88
210,Saint-Augustin,75,CA,2019-06-26 17:04:39,57,45.63,-73.98,81.0,6.93
211,Kaitangata,63,NZ,2019-06-26 17:04:39,69,-46.28,169.85,48.99,7.0
212,Salto de Pirapora,0,BR,2019-06-26 17:04:40,45,-23.65,-47.57,87.01,1.01
213,Senador Pompeu,7,BR,2019-06-26 17:04:40,49,-5.58,-39.37,84.15,4.97
214,Kikwit,42,CD,2019-06-26 17:04:40,31,-5.04,18.82,80.19,2.48
215,Robertsport,100,LR,2019-06-26 17:04:40,87,6.75,-11.37,78.75,8.12
216,La Rioja,0,AR,2019-06-26 17:02:12,28,-29.41,-66.86,52.65,4.38
217,Kahului,75,US,2019-06-26 17:04:29,94,20.89,-156.47,78.8,6.93
218,Porto Novo,40,BR,2019-06-26 17:04:41,37,-23.68,-45.44,86.0,5.82
219,Goulburn,37,AU,2019-06-26 17:04:42,93,-34.75,149.72,39.0,2.68
220,Mayo,40,CA,2019-06-26 17:04:42,38,63.59,-135.9,60.8,8.05
221,Podgornoye,87,RU,2019-06-26 17:04:42,70,57.79,82.64,65.61,9.95
222,Moberly,1,US,2019-06-26 17:04:43,48,39.42,-92.44,87.01,6.93
223,Bambous Virieux,75,MU,2019-06-26 17:04:43,88,-20.34,57.76,75.2,17.22
224,Xucheng,29,CN,2019-06-26 17:04:43,94,33.0,118.51,69.57,4.68
225,Ilulissat,75,GL,2019-06-26 17:04:44,81,69.22,-51.1,44.6,9.17
226,Xining,100,CN,2019-06-26 17:04:44,97,36.62,101.77,45.45,2.39
227,Cayenne,38,GF,2019-06-26 17:02:59,83,4.94,-52.33,78.8,12.75
228,Cap Malheureux,75,MU,2019-06-26 17:04:45,88,-19.98,57.61,75.2,17.22
229,Nola,54,CF,2019-06-26 17:04:45,96,3.52,16.05,70.65,2.39
230,West Bay,90,CA,2019-06-26 17:04:45,67,49.34,-123.21,69.01,6.93
231,Kharan,0,PK,2019-06-26 17:04:45,8,28.58,65.42,83.97,2.57
232,Siilinjarvi,0,FI,2019-06-26 17:04:46,59,63.08,27.67,62.6,11.41
233,Harper,90,US,2019-06-26 17:04:46,69,30.3,-99.24,82.0,13.87
234,Sao Paulo de Olivenca,100,BR,2019-06-26 17:04:46,89,-3.38,-68.87,81.81,2.17
235,Pfungstadt,0,DE,2019-06-26 17:04:47,34,49.8,8.6,96.8,8.05
236,Sawtell,75,AU,2019-06-26 17:04:47,93,-30.38,153.1,57.2,12.75
237,Labuhan,8,ID,2019-06-26 17:04:47,94,-2.54,115.51,72.63,1.25
238,La Ronge,90,CA,2019-06-26 17:04:48,76,55.1,-105.3,57.2,8.05
239,Severodvinsk,40,RU,2019-06-26 17:04:48,67,64.56,39.82,60.8,2.24
240,Sayyan,81,YE,2019-06-26 17:04:49,52,15.17,44.32,79.11,3.98
241,Waingapu,13,ID,2019-06-26 17:04:49,81,-9.65,120.26,66.33,9.53
242,Mogadishu,25,SO,2019-06-26 17:01:43,82,2.04,45.34,75.69,15.12
243,Sulya,100,IN,2019-06-26 17:04:49,84,12.56,75.39,79.65,5.06
244,Victoria,75,BN,2019-06-26 17:04:50,88,5.28,115.24,82.4,8.08
245,San Andres,96,PH,2019-06-26 17:04:50,89,13.32,122.68,77.49,1.97
246,Dudinka,75,RU,2019-06-26 17:04:51,57,69.41,86.18,48.2,6.71
247,Beberibe,20,BR,2019-06-26 17:02:24,62,-4.18,-38.13,86.0,23.04
248,Fortuna,20,US,2019-06-26 17:04:19,63,40.6,-124.16,62.6,6.93
249,Severo-Kurilsk,99,RU,2019-06-26 17:04:52,97,50.68,156.12,40.41,7.16
250,Verkhniye Sergi,99,RU,2019-06-26 17:04:52,91,56.65,59.56,47.43,3.74
251,Pevek,19,RU,2019-06-26 17:04:52,79,69.7,170.27,35.55,11.5
252,Natal,75,BR,2019-06-26 17:04:53,66,-5.81,-35.21,84.2,16.11
253,Sitka,72,US,2019-06-26 17:04:53,30,37.17,-99.65,91.89,16.82
254,Auki,12,NG,2019-06-26 17:04:54,46,12.18,6.51,87.21,7.31
255,Huangmei,82,CN,2019-06-26 17:04:54,80,30.1,115.95,73.89,4.45
256,Oudtshoorn,20,ZA,2019-06-26 17:04:54,87,-33.59,22.2,55.4,3.36
257,Belmonte,45,PT,2019-06-26 17:04:55,68,40.36,-7.35,75.99,5.99
258,Richards Bay,0,ZA,2019-06-26 17:01:12,72,-28.77,32.06,70.65,23.04
259,Mitsamiouli,20,KM,2019-06-26 17:04:55,74,-11.38,43.28,78.8,20.8
260,Nha Trang,20,VN,2019-06-26 17:04:55,70,12.24,109.19,87.8,16.11
261,Srednekolymsk,19,RU,2019-06-26 17:04:56,41,67.46,153.71,51.39,18.1
262,Fort Nelson,75,CA,2019-06-26 17:04:56,72,58.81,-122.69,62.6,9.17
263,Dalbandin,0,PK,2019-06-26 17:04:57,5,28.9,64.41,86.67,9.64
264,Esperance,90,AU,2019-06-26 17:04:57,82,-33.86,121.89,59.0,11.41
265,Saint George,20,GR,2019-06-26 17:04:57,42,39.45,22.34,87.01,8.05
266,Quito,20,EC,2019-06-26 17:04:58,35,-0.22,-78.51,73.4,3.36
267,Falun,89,SE,2019-06-26 17:04:58,63,60.61,15.63,68.0,8.05
268,Kilindoni,0,TZ,2019-06-26 17:04:58,76,-7.91,39.67,79.47,25.86
269,Pangnirtung,20,CA,2019-06-26 17:04:59,75,66.15,-65.72,42.8,13.87
270,Puerto Suarez,90,BO,2019-06-26 17:04:59,82,-18.96,-57.8,57.2,6.93
271,Sanghar,70,IN,2019-06-26 17:04:59,20,29.48,73.93,101.79,5.57
272,Sao Felix do Xingu,19,BR,2019-06-26 17:00:26,42,-6.64,-51.99,90.09,6.51
273,Haines Junction,100,CA,2019-06-26 17:05:00,60,60.75,-137.51,59.13,1.5
274,Dunedin,0,NZ,2019-06-26 17:01:29,64,-45.87,170.5,48.0,5.99
275,De-Kastri,39,RU,2019-06-26 17:05:00,98,51.48,140.77,39.33,4.76
276,Havoysund,0,NO,2019-06-26 17:05:01,81,71.0,24.66,48.2,9.17
277,Thompson,90,CA,2019-06-26 17:01:59,87,55.74,-97.86,55.4,6.93
278,Yarkovo,0,RU,2019-06-26 17:05:02,68,54.81,82.6,66.2,8.95
279,Wasilla,1,US,2019-06-26 17:05:02,82,61.58,-149.44,63.0,4.94
280,Meulaboh,100,ID,2019-06-26 17:05:02,70,4.14,96.13,83.43,7.16
281,Bathsheba,40,BB,2019-06-26 17:01:02,62,13.22,-59.52,87.8,17.22
282,Bubaque,20,GW,2019-06-26 17:05:02,77,11.28,-15.83,80.19,14.25
283,Longyearbyen,75,NO,2019-06-26 17:05:03,70,78.22,15.63,44.6,9.17
284,Kruisfontein,96,ZA,2019-06-26 17:05:03,94,-34.0,24.73,56.61,6.04
285,Colares,20,PT,2019-06-26 17:05:04,64,38.8,-9.45,73.4,10.29
286,Aripuana,61,BR,2019-06-26 17:05:04,46,-9.17,-60.63,89.37,3.0
287,Aklavik,40,CA,2019-06-26 17:05:05,65,68.22,-135.01,46.4,11.05
288,Kajaani,0,FI,2019-06-26 17:05:05,45,64.22,27.73,64.4,3.36
289,Kollo,19,NE,2019-06-26 17:05:05,25,13.34,2.32,100.71,3.87
290,Xiongzhou,75,CN,2019-06-26 17:05:05,94,32.34,118.83,77.0,2.24
291,Oranjemund,0,ZA,2019-06-26 17:05:06,81,-28.55,16.43,54.81,9.95
292,Alta Floresta,40,BR,2019-06-26 17:05:06,36,-9.87,-56.08,95.0,6.93
293,Sistranda,75,NO,2019-06-26 17:02:43,81,63.73,8.83,53.01,14.99
294,Dongsheng,100,CN,2019-06-26 17:05:07,74,29.72,112.52,76.05,1.01
295,Tahe,69,CN,2019-06-26 17:05:08,91,52.34,124.71,50.31,2.75
296,Karratha,35,AU,2019-06-26 17:05:08,67,-20.74,116.85,65.61,4.21
297,Puerto Guzman,90,BO,2019-06-26 17:05:09,88,-14.32,-67.54,66.2,13.87
298,Kichera,100,RU,2019-06-26 17:05:09,80,55.93,110.1,53.73,3.69
299,Lavrentiya,100,RU,2019-06-26 17:05:10,98,65.58,-170.99,45.99,7.49
300,Santa Isabel do Rio Negro,84,BR,2019-06-26 17:05:10,84,-0.41,-65.02,82.89,2.95
301,Nhulunbuy,13,AU,2019-06-26 17:05:10,88,-12.18,136.78,66.2,4.7
302,Nago,0,IT,2019-06-26 17:05:10,39,45.88,10.89,96.8,3.36
303,Verkhovazhye,27,RU,2019-06-26 17:05:11,77,60.75,42.05,48.69,1.63
304,Pillaro,75,EC,2019-06-26 17:05:11,63,-1.17,-78.53,80.6,2.24
305,Meadow Lake,40,CA,2019-06-26 17:02:33,63,54.13,-108.44,64.4,3.36
306,Deer Lake,75,CA,2019-06-26 17:05:12,43,49.18,-57.43,69.8,3.36
307,Peniche,20,PT,2019-06-26 17:05:12,56,39.36,-9.38,73.4,9.17
308,San Pablo,75,PH,2019-06-26 17:05:12,78,14.07,121.33,82.4,4.7
309,Novaci,1,RO,2019-06-26 17:05:13,69,45.17,23.66,58.23,2.93
310,Chengdu,40,CN,2019-06-26 17:05:13,94,30.68,104.06,77.0,4.47
311,Georgetown,40,GY,2019-06-26 17:05:14,74,6.8,-58.16,89.6,4.7
312,Vao,77,EE,2019-06-26 17:05:14,87,59.1,26.19,58.77,4.47
313,Camacha,40,PT,2019-06-26 17:05:15,68,33.08,-16.33,73.4,12.75
314,Beyneu,0,KZ,2019-06-26 17:05:15,39,45.32,55.19,83.25,8.37
315,Atherton,75,AU,2019-06-26 17:05:15,77,-17.27,145.48,69.8,14.99
316,San Ignacio,23,PE,2019-06-26 17:05:16,51,-5.15,-79.0,77.85,1.92
317,Orvault,0,FR,2019-06-26 17:05:16,30,47.27,-1.62,96.8,12.75
318,Hasaki,0,JP,2019-06-26 17:05:17,94,35.73,140.83,70.0,5.82
319,Zunyi,33,CN,2019-06-26 17:05:17,95,27.73,106.92,70.47,4.52
320,Nara,75,JP,2019-06-26 17:05:17,88,34.68,135.8,77.0,2.24
321,Airai,0,TL,2019-06-26 17:05:17,70,-8.93,125.41,65.79,5.59
322,Henties Bay,54,NA,2019-06-26 17:05:18,90,-22.12,14.28,57.0,1.01
323,Vaijapur,72,IN,2019-06-26 17:05:18,71,19.92,74.72,81.45,14.16
324,Chapleau,40,CA,2019-06-26 17:05:18,56,47.85,-83.4,71.6,14.99
325,Ixtapa,90,MX,2019-06-26 17:05:19,40,20.71,-105.21,89.6,9.28
326,Oksfjord,0,NO,2019-06-26 17:05:19,81,70.24,22.35,55.0,9.17
327,Sarab,51,IR,2019-06-26 17:05:19,54,38.61,44.99,64.35,3.71
328,Balabac,85,PH,2019-06-26 17:05:20,77,7.99,117.06,82.71,9.17
329,Fallon,1,US,2019-06-26 17:05:20,64,46.84,-105.12,68.0,3.36
330,Svetlogorsk,40,RU,2019-06-26 17:05:20,66,53.14,59.15,55.4,6.71
331,Sri Aman,82,MY,2019-06-26 17:05:21,88,1.24,111.46,78.8,1.28
332,Saskylakh,100,RU,2019-06-26 17:05:21,69,71.97,114.09,63.99,12.91
333,Altay,26,CN,2019-06-26 17:05:21,49,47.83,88.13,48.69,6.31
334,Coremas,0,BR,2019-06-26 17:05:22,27,-7.02,-37.95,93.15,5.23
335,Touros,75,BR,2019-06-26 17:05:22,66,-5.2,-35.46,84.2,16.11
336,Erdenet,17,MN,2019-06-26 17:05:22,66,49.03,104.04,46.35,1.83
337,Eureka,90,US,2019-06-26 17:05:23,82,40.8,-124.16,62.6,14.99
338,Chumikan,0,RU,2019-06-26 17:05:23,84,54.72,135.31,43.47,10.18
339,Patrocinio,89,PH,2019-06-26 17:05:24,81,13.72,123.64,81.63,8.28
340,Lusambo,26,CD,2019-06-26 17:05:24,43,-4.97,23.44,74.79,1.16
341,Kavaratti,100,IN,2019-06-26 17:05:24,76,10.57,72.64,83.97,16.02
342,Auray,0,FR,2019-06-26 17:05:25,55,47.67,-2.99,91.99,11.41
343,Rio Grande,0,BR,2019-06-26 17:05:26,47,-32.03,-52.1,57.2,11.41
344,Obihiro,91,JP,2019-06-26 17:05:26,73,42.92,143.2,57.69,5.93
345,Poplar Bluff,1,US,2019-06-26 17:05:26,62,36.76,-90.39,86.0,5.82
346,Didsbury,75,CA,2019-06-26 17:05:26,82,51.66,-114.14,64.0,3.36
347,Sorong,100,ID,2019-06-26 17:05:27,90,-0.86,131.25,76.59,7.9
348,Tilichiki,81,RU,2019-06-26 17:05:27,83,60.47,166.1,45.99,4.43
349,Zhangye,100,CN,2019-06-26 17:05:27,59,38.94,100.46,56.43,5.55
350,Tongchuan,90,CN,2019-06-26 17:05:28,100,34.9,108.95,71.6,4.47
351,Sechura,13,PE,2019-06-26 17:05:28,84,-5.56,-80.82,65.07,11.7
352,Bethanien,78,NA,2019-06-26 17:05:28,10,-26.5,17.16,52.65,8.86
353,Muros,20,ES,2019-06-26 17:04:10,73,42.77,-9.06,73.0,8.05
354,Pedernales,94,EC,2019-06-26 17:05:29,84,0.07,-80.05,76.41,12.08
355,Samoylovka,80,RU,2019-06-26 17:05:29,73,51.19,43.71,57.15,1.3
356,Wembley,75,CA,2019-06-26 17:05:29,77,55.15,-119.14,60.8,4.7
357,Dikson,100,RU,2019-06-26 17:05:30,94,73.51,80.55,33.21,16.6
358,Pincher Creek,1,CA,2019-06-26 17:05:30,66,49.49,-113.95,57.99,5.64
359,Ust-Nera,56,RU,2019-06-26 17:05:30,58,64.57,143.24,56.43,1.81
360,Praia,20,BR,2019-06-26 17:05:31,39,-20.25,-43.81,82.4,8.05
361,El Sauzal,20,AR,2019-06-26 17:05:31,58,-24.3,-64.96,53.6,9.17
362,Nohar,25,IN,2019-06-26 17:05:32,23,29.18,74.77,99.27,8.23
363,Havelock,1,US,2019-06-26 17:05:19,41,34.88,-76.9,93.99,3.36
364,Luderitz,26,NA,2019-06-26 17:05:32,67,-26.65,15.16,60.8,12.75
365,Quang Ngai,98,VN,2019-06-26 17:05:33,89,15.12,108.8,74.07,3.71
366,Boa Esperanca,47,BR,2019-06-26 17:05:33,90,-1.91,-60.0,80.73,3.09
367,Fairbanks,1,US,2019-06-26 17:02:50,51,64.84,-147.72,64.99,3.36
368,Birjand,0,IR,2019-06-26 17:05:33,9,32.86,59.22,84.2,9.17
369,Barabai,48,ID,2019-06-26 17:05:34,91,-2.59,115.38,72.99,2.28
370,Sinnamary,40,GF,2019-06-26 17:05:34,83,5.38,-52.96,80.19,17.25
371,Alekseyevsk,52,RU,2019-06-26 17:02:40,56,57.84,108.35,60.21,8.23
372,Stepnyak,94,KZ,2019-06-26 17:05:34,91,52.83,70.79,50.67,7.92
373,Shakawe,6,BW,2019-06-26 17:05:35,26,-18.36,21.84,62.91,4.16
374,Qaqortoq,75,GL,2019-06-26 17:05:35,87,60.72,-46.03,51.8,5.82
375,Beira,20,ES,2019-06-26 17:05:35,73,43.2,-8.36,75.0,4.7
376,Ulaanbaatar,40,MN,2019-06-26 17:05:36,50,47.92,106.92,55.4,6.71
377,Aksarka,59,RU,2019-06-26 17:05:36,80,66.56,67.8,44.19,5.57
378,Saint-Francois,0,FR,2019-06-26 17:05:36,29,46.42,3.91,100.4,6.93
379,Nacala,0,MZ,2019-06-26 17:05:37,75,-14.56,40.69,66.15,6.76
380,Iqaluit,20,CA,2019-06-26 17:05:37,61,63.75,-68.52,50.0,8.05
381,Ayorou,0,NE,2019-06-26 17:05:37,16,14.73,0.92,104.85,3.58
382,Vardo,1,US,2019-06-26 17:05:37,52,39.62,-77.74,89.01,8.05
383,Teya,40,MX,2019-06-26 17:05:38,62,21.05,-89.07,93.99,11.41
384,Cidreira,94,BR,2019-06-26 17:05:38,49,-30.17,-50.22,53.73,7.54
385,Hajipur,75,IN,2019-06-26 17:05:39,62,25.69,85.21,87.8,4.7
386,Tandil,0,AR,2019-06-26 17:05:39,34,-37.33,-59.14,53.01,19.46
387,Manado,40,ID,2019-06-26 17:00:59,74,1.49,124.85,78.8,3.36
388,Witham,75,GB,2019-06-26 17:05:39,72,51.8,0.64,70.0,13.87
389,Tornio,90,FI,2019-06-26 17:05:39,55,61.12,27.27,64.99,8.05
390,Boguchany,92,RU,2019-06-26 17:05:40,51,58.38,97.46,62.91,2.77
391,Lompoc,90,US,2019-06-26 17:05:40,72,34.64,-120.46,64.4,6.93
392,Prainha,93,BR,2019-06-26 17:05:40,83,-1.8,-53.48,82.35,4.29
393,San Felipe,98,CL,2019-06-26 17:05:41,95,-32.75,-70.73,54.0,4.12
394,Soyo,20,AO,2019-06-26 17:05:42,73,-6.13,12.37,77.0,8.05
395,Lagoa,20,PT,2019-06-26 17:05:42,78,37.14,-8.45,73.99,13.87
396,Murdochville,93,CA,2019-06-26 17:05:42,72,48.96,-65.49,60.57,12.01
397,Flin Flon,75,CA,2019-06-26 17:05:42,77,54.77,-101.88,59.0,2.24
398,Moyale,52,ET,2019-06-26 17:04:42,60,3.52,39.05,73.89,8.5
399,San Cristobal,75,HN,2019-06-26 17:05:43,54,14.68,-86.92,82.35,8.84
400,Juneau,75,US,2019-06-26 17:02:38,77,58.3,-134.42,62.01,6.93
401,Apt,0,FR,2019-06-26 17:05:44,34,43.88,5.4,96.8,10.29
402,Namatanai,87,PG,2019-06-26 17:05:44,83,-3.66,152.44,79.83,11.14
403,Alofi,95,NU,2019-06-26 17:05:44,94,-19.06,-169.92,68.0,3.36
404,Priiskovyy,100,RU,2019-06-26 17:05:45,97,51.93,116.63,59.13,6.89
405,Kyren,100,RU,2019-06-26 17:05:45,98,51.68,102.13,38.79,2.39
406,Nouakchott,0,MR,2019-06-26 17:05:46,32,18.08,-15.98,96.8,20.8
407,Ugoofaaru,100,MV,2019-06-26 17:05:46,77,5.67,73.0,84.15,11.12
408,Scottsboro,75,US,2019-06-26 17:01:16,79,34.67,-86.03,88.0,4.56
409,Ingham,92,AU,2019-06-26 17:05:47,95,-18.65,146.16,61.29,1.19
410,Mutsu,20,JP,2019-06-26 17:05:47,100,41.29,141.2,60.8,1.12
411,Saint-Georges,76,CA,2019-06-26 17:05:48,54,46.12,-70.67,75.99,3.94
412,Shatrovo,20,BG,2019-06-26 17:05:48,57,42.29,22.98,78.8,10.29
413,Cravo Norte,23,CO,2019-06-26 17:05:48,75,6.3,-70.2,85.05,9.8
414,Banjar,100,ID,2019-06-26 17:05:49,93,-7.37,108.54,72.27,1.57
415,Zhangjiakou,100,CN,2019-06-26 17:05:49,67,40.77,114.88,63.81,1.36
416,Kurilsk,100,RU,2019-06-26 17:05:50,93,45.23,147.88,46.53,9.95
417,Muana,51,BR,2019-06-26 17:05:50,46,-1.53,-49.22,91.35,3.78
418,Itaituba,20,BR,2019-06-26 17:05:50,59,-4.26,-55.99,91.4,4.7
419,Lang Son,82,VN,2019-06-26 17:04:35,89,21.83,106.73,77.31,2.64
420,Mecca,0,SA,2019-06-26 17:04:37,39,21.43,39.83,89.55,3.38
421,Taoudenni,0,ML,2019-06-26 17:05:51,4,22.68,-3.98,114.39,10.29
422,Dzilam Gonzalez,100,MX,2019-06-26 17:05:52,83,21.28,-88.93,80.37,23.47
423,Lamu,93,CN,2019-06-26 17:05:52,87,35.77,102.37,48.69,3.33
424,Lexington Park,40,US,2019-06-26 17:05:52,48,38.26,-76.45,90.0,3.36
425,Lowestoft,75,GB,2019-06-26 17:05:53,87,52.48,1.75,63.0,11.41
426,Yerbogachen,1,RU,2019-06-26 17:05:53,68,61.28,108.01,59.49,0.2
427,Seoul,90,KR,2019-06-26 16:58:37,106,37.57,126.98,73.4,1.12
428,Tarakan,95,ID,2019-06-26 17:05:53,87,3.3,117.63,78.93,2.01
429,Tommot,90,RU,2019-06-26 17:05:54,94,58.97,126.27,49.95,2.89
430,Sulechow,20,PL,2019-06-26 17:05:54,27,52.08,15.63,98.6,9.17
431,Mbandaka,74,CD,2019-06-26 17:05:54,77,0.05,18.26,76.05,2.71
432,Hualmay,90,PE,2019-06-26 17:05:54,83,-11.1,-77.61,63.09,11.01
433,Ban Tak,100,TH,2019-06-26 17:05:55,82,17.04,99.08,76.41,4.32
434,Baishishan,96,CN,2019-06-26 17:05:55,81,43.58,127.55,61.65,3.31
435,Loa Janan,7,ID,2019-06-26 17:05:56,95,-0.58,117.09,75.69,3.76
436,Coahuayana,25,MX,2019-06-26 17:05:56,59,18.62,-100.35,89.73,2.15
437,Sao Gabriel da Cachoeira,40,BR,2019-06-26 17:05:56,70,-0.13,-67.09,86.0,4.7
438,Wakefield,75,GB,2019-06-26 17:03:31,82,53.68,-1.5,63.0,6.93
439,Nizhniy Bestyakh,0,RU,2019-06-26 17:05:57,87,61.96,129.91,51.8,6.71
440,Walvis Bay,0,NA,2019-06-26 17:05:57,49,-22.95,14.51,69.8,6.93
441,Newport,20,GB,2019-06-26 17:05:58,72,51.59,-3.0,72.0,20.8
442,Nueve de Julio,0,AR,2019-06-26 17:05:58,17,-31.67,-68.39,56.43,3.44
443,Playa del Carmen,20,MX,2019-06-26 17:01:36,62,20.63,-87.08,89.6,11.41
444,Rovaniemi,0,FI,2019-06-26 17:01:51,67,66.5,25.72,59.0,16.11
445,Barsovo,75,RU,2019-06-26 17:05:59,100,61.17,73.17,48.2,15.66
446,Indianola,1,US,2019-06-26 17:05:59,65,40.24,-100.42,78.8,19.46
447,Launceston,90,AU,2019-06-26 17:05:59,100,-41.43,147.14,42.01,2.3
448,Xiaoshi,96,CN,2019-06-26 17:06:00,79,30.59,116.63,74.25,3.94
449,Vila do Maio,20,CV,2019-06-26 17:06:00,51,15.13,-23.22,86.0,20.8
450,Aginskoye,100,RU,2019-06-26 17:06:00,71,51.11,114.54,59.0,3.0
451,Leshukonskoye,91,RU,2019-06-26 17:06:01,56,64.9,45.76,57.87,4.92
452,Honiara,20,SB,2019-06-26 17:06:01,100,-9.43,159.96,73.4,4.43
453,Halifax,75,CA,2019-06-26 17:05:56,67,44.65,-63.58,64.99,14.99
454,Araouane,1,ML,2019-06-26 17:06:01,4,18.9,-3.53,112.59,12.44
455,Sao Filipe,0,CV,2019-06-26 17:06:02,85,14.9,-24.5,75.15,24.92
456,Bumba,99,CD,2019-06-26 17:06:02,86,2.18,22.47,72.99,0.69
457,George Town,75,MY,2019-06-26 17:06:02,83,5.42,100.33,84.2,4.25
458,Aykhal,75,RU,2019-06-26 17:06:03,52,65.95,111.51,66.2,6.71
459,Miyako,100,JP,2019-06-26 17:06:03,88,33.63,130.94,75.99,2.24
460,Igarka,100,RU,2019-06-26 17:06:03,54,67.47,86.57,47.79,4.9
461,Vale,76,GE,2019-06-26 17:06:04,98,41.62,42.88,58.59,2.71
462,Chulym,0,RU,2019-06-26 17:06:04,77,55.09,80.97,60.57,11.65
463,Coruripe,69,BR,2019-06-26 17:06:05,73,-10.12,-36.18,79.29,13.2
464,San Jeronimo,0,PE,2019-06-26 17:06:05,34,-13.65,-73.37,53.6,6.24
465,Nanortalik,100,GL,2019-06-26 17:06:05,99,60.14,-45.24,41.67,6.96
466,Okhotsk,83,RU,2019-06-26 17:06:06,67,59.36,143.24,54.09,11.72
467,Gizo,0,IL,2019-06-26 17:06:06,40,31.8,34.94,87.8,9.17
468,Buala,47,SB,2019-06-26 17:06:06,81,-8.15,159.59,79.47,5.44
469,Tolmezzo,5,IT,2019-06-26 17:06:07,48,46.41,13.02,96.8,3.36
470,Luau,0,CD,2019-06-26 17:06:08,28,-10.7,22.23,67.95,2.64
471,Constitucion,5,MX,2019-06-26 17:06:08,40,23.99,-104.67,77.0,4.7
472,Kuusamo,0,FI,2019-06-26 17:06:08,42,65.96,29.19,62.6,6.93
473,Gushikawa,20,JP,2019-06-26 17:06:09,94,26.35,127.87,78.8,3.36
474,Egvekinot,100,RU,2019-06-26 17:06:09,78,66.32,-179.17,39.87,15.14
475,Ahipara,37,NZ,2019-06-26 17:06:09,68,-35.17,173.16,55.89,12.91
476,Kisangani,34,CD,2019-06-26 17:06:09,84,0.52,25.21,73.53,1.66
477,Tumsar,44,IN,2019-06-26 17:06:10,60,21.38,79.75,87.03,3.91
478,Ronne,0,FR,2019-06-26 17:06:10,41,48.45,0.83,95.0,11.41
479,Shilka,100,RU,2019-06-26 17:06:10,97,51.85,116.03,57.33,8.12
480,Taltal,1,CL,2019-06-26 17:06:11,68,-25.41,-70.49,58.77,5.44
481,Katobu,12,ID,2019-06-26 17:06:11,87,-4.94,122.53,72.63,3.76
482,Laramie,1,US,2019-06-26 17:06:11,28,41.31,-105.59,79.0,9.17
483,Makakilo City,40,US,2019-06-26 17:06:11,88,21.35,-158.09,75.0,3.36
484,Palana,0,RU,2019-06-26 17:06:12,75,59.08,159.95,49.77,6.73
485,Conde,11,BR,2019-06-26 17:06:12,59,-11.81,-37.61,80.37,7.87
486,Aksha,52,RU,2019-06-26 17:06:12,95,50.28,113.29,51.75,3.83
487,Vestmannaeyjar,90,IS,2019-06-26 17:06:13,100,63.44,-20.27,51.8,17.22
488,Imbituba,75,BR,2019-06-26 17:06:13,82,-28.24,-48.67,55.4,12.75
489,Tumaco,60,CO,2019-06-26 17:04:33,82,1.8,-78.82,79.11,12.66
490,Manzanillo,75,MX,2019-06-26 17:06:14,66,19.05,-104.32,89.6,5.97
491,Tam Ky,20,VN,2019-06-26 17:04:39,74,15.57,108.48,86.0,3.36
492,Vaitape,33,PF,2019-06-26 17:06:15,76,-16.52,-151.75,80.19,8.05
493,Borskoye,42,RU,2019-06-26 17:06:15,82,53.03,51.7,55.89,6.53
494,Alamogordo,1,US,2019-06-26 17:02:07,21,32.9,-105.96,95.0,18.34
495,Marzuq,87,YE,2019-06-26 17:06:15,12,14.4,46.47,92.25,10.0
496,Acapulco,5,MX,2019-06-26 17:05:43,55,16.86,-99.88,89.6,9.17
497,Kenai,75,US,2019-06-26 17:06:16,87,60.55,-151.26,57.99,11.41
498,Griffith,0,AU,2019-06-26 17:06:16,87,-34.29,146.06,46.99,12.75
499,Corrente,8,BR,2019-06-26 17:06:16,30,-17.45,-44.68,86.13,2.48
500,Chute-aux-Outardes,90,CA,2019-06-26 17:06:17,93,49.12,-68.38,64.4,8.05
501,Northam,75,AU,2019-06-26 17:05:45,82,-31.65,116.67,57.2,12.75
502,Gazojak,0,TM,2019-06-26 17:06:17,17,41.19,61.4,89.19,6.55
503,Darnah,0,LY,2019-06-26 17:06:17,83,32.77,22.64,77.85,12.8
504,Linxia,100,CN,2019-06-26 17:06:18,92,35.6,103.21,49.77,2.48
505,Nizhniy Odes,98,RU,2019-06-26 17:06:18,55,63.64,54.86,54.99,3.31
506,Vilhena,75,BR,2019-06-26 17:06:19,48,-12.74,-60.15,86.0,10.29
507,Whitehorse,75,CA,2019-06-26 17:03:02,72,60.72,-135.06,60.01,5.82
508,Tiznit,1,MA,2019-06-26 17:06:19,89,29.7,-9.73,67.77,16.17
509,Luorong,16,CN,2019-06-26 17:06:19,88,24.41,109.6,78.39,3.85
510,Buckeye,1,US,2019-06-26 17:06:20,18,33.37,-112.58,93.99,4.7
511,Vestmanna,20,FO,2019-06-26 17:06:21,87,62.16,-7.17,51.8,9.17
512,Rockland,40,CA,2019-06-26 17:03:47,78,45.55,-75.29,80.01,10.29
513,Bambanglipuro,100,ID,2019-06-26 17:06:21,80,-7.95,110.28,76.59,11.56
514,Amga,0,RU,2019-06-26 17:06:21,77,60.89,131.98,49.05,1.95
515,Yumen,86,CN,2019-06-26 17:06:22,28,40.29,97.04,71.55,15.41
516,Kumo,100,NG,2019-06-26 17:06:22,77,10.05,11.21,78.75,12.26
517,Norden,75,DE,2019-06-26 17:06:23,82,53.59,7.21,66.99,12.75
518,Kieta,94,PG,2019-06-26 17:06:23,78,-6.22,155.63,80.01,6.33
519,Berezovyy,19,RU,2019-06-26 17:06:23,95,51.67,135.7,38.61,3.13
520,Ca Mau,100,VN,2019-06-26 17:03:43,86,9.18,105.15,79.83,3.94
521,Sabla,9,NG,2019-06-26 17:06:24,31,12.75,4.71,96.75,6.35
522,Biak,97,ID,2019-06-26 17:06:24,98,-0.91,122.88,64.71,4.14
523,Tabou,100,CI,2019-06-26 17:06:24,91,4.42,-7.36,74.97,5.79
524,Clarence Town,40,AU,2019-06-26 17:06:25,100,-32.59,151.78,55.0,0.72
525,Norrtalje,75,SE,2019-06-26 17:06:25,88,59.76,18.7,66.2,2.24
526,Belaya Gora,7,RU,2019-06-26 17:06:26,33,68.54,146.19,60.03,12.86
527,Asosa,44,ET,2019-06-26 17:06:26,96,10.07,34.53,66.87,2.08
528,Myaundzha,0,RU,2019-06-26 17:06:26,67,63.05,147.18,47.25,5.32
529,Inhambane,20,MZ,2019-06-26 17:06:27,72,-23.87,35.38,68.0,4.7
530,Brosteni,0,RO,2019-06-26 17:06:27,53,47.24,25.7,77.0,5.82
531,Sherpur,100,BD,2019-06-26 17:06:28,93,25.02,90.01,80.19,10.83
532,Bonoua,20,CI,2019-06-26 17:06:28,88,5.27,-3.6,78.8,8.05
533,Juybar,0,IR,2019-06-26 17:06:28,70,36.64,52.91,86.0,4.7
534,Forio,20,IT,2019-06-26 17:06:29,38,40.73,13.86,93.2,13.87
535,Huarmey,99,PE,2019-06-26 17:06:29,83,-10.07,-78.15,63.63,11.3
536,Los Llanos de Aridane,40,ES,2019-06-26 17:06:29,64,28.66,-17.92,75.2,12.75
537,Riverton,1,US,2019-06-26 17:05:33,48,43.02,-108.38,73.0,1.3
538,Acajutla,33,SV,2019-06-26 17:06:30,68,13.59,-89.83,84.33,5.46
539,Parana,75,BR,2019-06-26 17:06:03,62,-7.52,-72.89,87.8,5.82
540,Chikwawa,17,MW,2019-06-26 17:06:30,63,-16.03,34.79,66.2,10.29
541,Maple Creek,0,CA,2019-06-26 17:06:31,44,49.91,-109.46,70.65,1.05
542,Astoria,20,US,2019-06-26 17:06:32,67,46.19,-123.83,63.0,4.7
543,Mehamn,75,NO,2019-06-26 17:06:32,81,71.03,27.85,48.2,18.34
544,Tarko-Sale,100,RU,2019-06-26 17:06:32,64,64.92,77.78,55.0,4.0
545,Regina,20,CA,2019-06-26 17:02:59,63,50.45,-104.62,72.0,6.93
546,Yinchuan,100,CN,2019-06-26 17:06:33,88,38.48,106.21,58.41,2.64
547,Marystown,12,CA,2019-06-26 17:06:33,59,47.17,-55.16,59.13,7.54
548,Saurimo,0,AO,2019-06-26 17:06:33,24,-9.66,20.4,68.49,4.14
549,Tadine,86,NC,2019-06-26 17:06:33,88,-21.55,167.88,72.09,15.17
550,Coihueco,90,CL,2019-06-26 17:06:34,81,-36.63,-71.83,55.0,17.22
551,Oxchuc,72,MX,2019-06-26 17:06:34,47,16.78,-92.34,81.99,6.02
552,Iguape,93,BR,2019-06-26 17:06:34,88,-24.7,-47.56,66.69,3.29
553,Inta,87,RU,2019-06-26 17:06:34,76,66.04,60.13,48.33,4.92
554,Mapiripan,87,CO,2019-06-26 17:06:35,85,2.89,-72.13,79.83,7.61
555,Windhoek,0,NA,2019-06-26 17:06:35,13,-22.57,17.08,71.6,5.82
556,Oranjestad,40,AW,2019-06-26 17:06:35,59,12.52,-70.03,89.6,21.92
557,Matara,76,BI,2019-06-26 17:06:36,88,-3.48,29.48,53.73,1.97
558,Mehran,0,IR,2019-06-26 17:06:36,13,33.12,46.17,91.4,9.17
559,Ailigandi,52,PA,2019-06-26 17:06:37,80,9.23,-78.02,82.35,10.87
560,Manjeshwar,75,IN,2019-06-26 17:06:37,88,12.72,74.89,77.0,13.31
561,Nyurba,9,RU,2019-06-26 17:06:38,89,63.29,118.35,58.05,2.59
562,Ola,22,RU,2019-06-26 17:06:38,70,59.58,151.3,48.33,3.27
563,Pudozh,51,RU,2019-06-26 17:06:38,67,61.81,36.54,57.33,1.99
